{"pname":"Madagascar","lat":"-18.766947","lng":"46.869106999999985"}
{"pname":"Ghana","lat":"7.946527","lng":"-1.0231939999999895"}
{"pname":"Kenya","lat":"-0.023559","lng":"37.90619300000003"}
{"pname":"Rio","lat":"-22.9035393","lng":"-43.20958689999998"}
{"pname":"Dallas","lat":"32.802955","lng":"-96.769923"}
{"pname":"Denver","lat":"39.7391536","lng":"-104.9847034"}
{"pname":"Bangalore, In","lat":"12.9715987","lng":"77.59456269999998"}
{"pname":"Moscow","lat":"55.755786","lng":"37.61763300000007"}
{"pname":"Hong Kong","lat":"22.396428","lng":"114.10949700000003"}
{"pname":"Berlin","lat":"52.5234051","lng":"13.411399899999992"}
{"pname":"London","lat":"51.5001524","lng":"-0.12623619999999391"}
{"pname":"Paris","lat":"48.856614","lng":"2.3522219000000177"}
{"pname":"Atlanta","lat":"33.7489954","lng":"-84.3879824"}
{"pname":"Miami","lat":"25.7889689","lng":"-80.22643929999998"}
{"pname":"Tokyo","lat":"35.6894875","lng":"139.69170639999993"}
{"pname":"S F","lat":"37.7749295","lng":"-122.41941550000001"}
